[
{'lng':121.482929014647,'lat':31.2406871510026,'count':50,'name':"人民广场-南京东路"},
{'lng':121.446582298406,'lat':31.1999327663924,'count':50,'name':"徐家汇"},
{'lng':121.520380649463,'lat':31.308721073519,'count':50,'name':"五角场"},
{'lng':121.483086477578,'lat':31.2307894219967,'count':50,'name':"淮海路"},
{'lng':121.464640707084,'lat':31.2221177445104,'count':50,'name':"音乐学院"},
{'lng':121.454375260443,'lat':31.2301644747387,'count':50,'name':"静安寺"},
{'lng':121.462833702931,'lat':31.2351377195479,'count':50,'name':"南京西路"},
{'lng':121.423738218854,'lat':31.2243712953956,'count':50,'name':"中山公园"},
{'lng':121.419416230625,'lat':31.2394432657806,'count':50,'name':"环球港"},
{'lng':121.460856041605,'lat':31.2511505737355,'count':50,'name':"上海火车站"},
{'lng':121.485085492792,'lat':31.2766342875169,'count':50,'name':"虹口足球场"},
{'lng':121.49098765882,'lat':31.2563443017892,'count':50,'name':"四川北路"},
{'lng':121.47925618411,'lat':31.2495065381322,'count':50,'name':"大悦城"},
{'lng':121.497354724613,'lat':31.2326582363389,'count':50,'name':"城隍庙"},
{'lng':121.476210713287,'lat':31.2118784389518,'count':50,'name':"打浦桥"},
{'lng':121.568209314741,'lat':31.2145767255769,'count':50,'name':"花木龙阳路"},
{'lng':121.524366204605,'lat':31.2359142073144,'count':50,'name':"八佰伴"},
{'lng':121.50727468901,'lat':31.242553835274,'count':50,'name':"陆家嘴"},
{'lng':121.585868959354,'lat':31.2629364848406,'count':50,'name':"金桥"},
{'lng':121.458447270089,'lat':31.2820343973228,'count':50,'name':"大宁"}
]